[
    {
        "name": "pim",
        "street": "Via Portuense, 265",
        "lat": 41.8683056,
        "long": 12.4650361,
        "city": "Roma",
        "working_hours": "['7:30-21:00 (continuato)', 'Aperto la domenica8:00-20:00']",
        "picks_up_in_shop": "True",
        "zip_code": "00146"
    },
    {
        "name": "pim",
        "street": "Via Massimo Troisi, 15",
        "lat": 41.7858919,
        "long": 12.3907496,
        "city": "Roma",
        "working_hours": "['7:00-22:00', 'Aperto la domenica7:00-22:00']",
        "picks_up_in_shop": "True",
        "zip_code": "00125"
    },
    {
        "name": "pim",
        "street": "Via di Torrevecchia, 1050",
        "lat": 41.9133191,
        "long": 12.402817,
        "city": "IPERFAMILY Roma",
        "working_hours": "['7:00-22:00 (continuato)', 'Aperto la domenica7:00-22:00']",
        "picks_up_in_shop": "True",
        "zip_code": "00168"
    },
    {
        "name": "pim",
        "street": "Via Pineta Sacchetti, 65",
        "lat": 41.9116445,
        "long": 12.4230704,
        "city": "Roma",
        "working_hours": "[]",
        "picks_up_in_shop": "True",
        "zip_code": "00167"
    },
    {
        "name": "pim",
        "street": "Via dei Monti di San Paolo, 51",
        "lat": 41.7889494,
        "long": 12.3570006,
        "city": "Roma",
        "working_hours": "['7:30 - 21:30 (continuato)', 'Aperto la domenica7:30 - 13:30']",
        "picks_up_in_shop": "True",
        "zip_code": "00126"
    },
    {
        "name": "pim",
        "street": "Via di Macchia Saponara, 251",
        "lat": 41.7594255,
        "long": 12.3636751,
        "city": "Roma, Casal Palocco",
        "working_hours": "['7:00 - 22:00 (continuato)', 'Aperto la domenica7:00 - 22:00']",
        "picks_up_in_shop": "True",
        "zip_code": "00125"
    },
    {
        "name": "pim",
        "street": "Via della Giustiniana, 271",
        "lat": 42.0066287,
        "long": 12.4754766,
        "city": "Roma",
        "working_hours": "['7:00 - 22:00 (continuato)', 'Aperto la domenica7:00 - 22:00']",
        "picks_up_in_shop": "True",
        "zip_code": "00188"
    },
    {
        "name": "pim",
        "street": "Via Andrea Barbato, 31 - C.C. Torresina",
        "lat": 41.9291588,
        "long": 12.4008798,
        "city": "Roma",
        "working_hours": "['Aperto la domenica']",
        "picks_up_in_shop": "True",
        "zip_code": "00168"
    },
    {
        "name": "pim",
        "street": "Via Carlo Gherardini, 2",
        "lat": 41.98248419999999,
        "long": 12.4133887,
        "city": "Roma",
        "working_hours": "['7:00 - 22:00 (continuato)', 'Aperto la domenica7:00 - 22:00']",
        "picks_up_in_shop": "True",
        "zip_code": "00135"
    },
    {
        "name": "pim",
        "street": "Via Trionfale, 8044",
        "lat": 41.937812,
        "long": 12.4309107,
        "city": "Roma",
        "working_hours": "['7:00-22:00 (continuato)', 'Aperto la domenica7:30-20:00']",
        "picks_up_in_shop": "True",
        "zip_code": "00135"
    },
    {
        "name": "pim",
        "street": "Via Isacco Newton ang. Via Bellotti",
        "lat": 41.8482715,
        "long": 12.4426887,
        "city": "Roma",
        "working_hours": "['8:00-22:00 (continuato)', 'Aperto la domenica8:00-22:00']",
        "picks_up_in_shop": "True",
        "zip_code": null
    },
    {
        "name": "pim",
        "street": "Via di Torrevecchia, 590 - C.C. \"Il Fontanile\"",
        "lat": 41.9227166,
        "long": 12.4105739,
        "city": "Roma",
        "working_hours": "['7:00-21:00 (continuato)', 'Aperto la domenica8:00-14:00']",
        "picks_up_in_shop": "True",
        "zip_code": "00168"
    },
    {
        "name": "pim",
        "street": "Via Casal Tidei, 20",
        "lat": 41.9422423,
        "long": 12.5781827,
        "city": "AGORA Roma",
        "working_hours": "['06 4120 5920', '8:00-22:00 (continuato)', 'Aperto la domenica8:00-22:00']",
        "picks_up_in_shop": "True",
        "zip_code": "00156"
    },
    {
        "name": "pim",
        "street": "Via Teresa De Gubernatis snc",
        "lat": 41.8967068,
        "long": 12.4822025,
        "city": "AGORA Roma",
        "working_hours": "['7:00-22:00 (continuato)', 'Aperto la domenica8:00-22:00']",
        "picks_up_in_shop": "True",
        "zip_code": null
    },
    {
        "name": "pim",
        "street": "Via Piedicavallo, 37",
        "lat": 41.9237244,
        "long": 12.3603832,
        "city": "Roma",
        "working_hours": "['7:00-21:00 (continuato)', 'Aperto la domenica8:00-20:00']",
        "picks_up_in_shop": "True",
        "zip_code": "00166"
    },
    {
        "name": "pim",
        "street": "Via Luigi Zambarelli, 31",
        "lat": 41.8777841,
        "long": 12.446102,
        "city": "Roma",
        "working_hours": "[]",
        "picks_up_in_shop": "True",
        "zip_code": "00152"
    },
    {
        "name": "pim",
        "street": "Via Oderisi da Gubbio, 133/183",
        "lat": 41.86496750000001,
        "long": 12.4652797,
        "city": "Roma",
        "working_hours": "['7:00 - 21:00 (continuato)', 'Aperto la domenica7:00 - 21:00']",
        "picks_up_in_shop": "True",
        "zip_code": "00146"
    },
    {
        "name": "pim",
        "street": "Viale Giuseppe Mazzini, 153",
        "lat": 41.9159924,
        "long": 12.4554465,
        "city": "Roma",
        "working_hours": "['7:30-22:00 (continuato)', 'Aperto la domenica7:30-22:00']",
        "picks_up_in_shop": "True",
        "zip_code": "00195"
    },
    {
        "name": "pim",
        "street": "Via Sant'Elia, 13",
        "lat": 41.9310207,
        "long": 12.4841326,
        "city": "Roma",
        "working_hours": "['7:00 - 22:00 (continuato)', 'Aperto la domenica7:00 - 22:00']",
        "picks_up_in_shop": "True",
        "zip_code": "00197"
    },
    {
        "name": "pim",
        "street": "Via delle Petunie, 5",
        "lat": 41.9778756,
        "long": 12.7068691,
        "city": "Guidonia Montecelio (RM)",
        "working_hours": "[]",
        "picks_up_in_shop": "True",
        "zip_code": "00012"
    },
    {
        "name": "pim",
        "street": "Via Flaminia Nuova, 276",
        "lat": 41.9520387,
        "long": 12.4729286,
        "city": "Roma",
        "working_hours": "['Aperto la domenica']",
        "picks_up_in_shop": "True",
        "zip_code": "00191"
    },
    {
        "name": "pim",
        "street": "Via Igea, 42",
        "lat": 41.9345562,
        "long": 12.4422935,
        "city": "Roma",
        "working_hours": "['7:30-21:00 (continuato)', 'Aperto la domenica8:00-20:00']",
        "picks_up_in_shop": "True",
        "zip_code": "00135"
    },
    {
        "name": "pim",
        "street": "Via Gregorio VII, 242",
        "lat": 41.8965735,
        "long": 12.4413222,
        "city": "AGORA Roma",
        "working_hours": "['8:00-22:00 (continuato)', 'Aperto la domenica8:00-22:00']",
        "picks_up_in_shop": "True",
        "zip_code": "00165"
    },
    {
        "name": "pim",
        "street": "Via Tripoli, 134",
        "lat": 41.9291564,
        "long": 12.5174155,
        "city": "Roma",
        "working_hours": "['7:00 - 22:00 (continuato)', 'Aperto la domenica7:00 - 22:00']",
        "picks_up_in_shop": "True",
        "zip_code": "00199"
    },
    {
        "name": "pim",
        "street": "Via di Torrevecchia, 313",
        "lat": 41.9270263,
        "long": 12.4159683,
        "city": "Roma",
        "working_hours": "['7:30-21:00 (continuato)', 'Aperto la domenica8:00-20:00']",
        "picks_up_in_shop": "True",
        "zip_code": "00168"
    },
    {
        "name": "pim",
        "street": "Via Pietro Maffi, 114",
        "lat": 41.9257227,
        "long": 12.4200156,
        "city": "Roma",
        "working_hours": "['8:00 - 21:00 (continuato)', 'Aperto la domenica8:00 - 21:00']",
        "picks_up_in_shop": "True",
        "zip_code": "00168"
    },
    {
        "name": "pim",
        "street": "Via Boccea, 632/640",
        "lat": 41.9200245,
        "long": 12.3777994,
        "city": "AGORA Roma",
        "working_hours": "['7:00-22:00 (continuato)', 'Aperto la domenica8:00-22:00']",
        "picks_up_in_shop": "True",
        "zip_code": "00166"
    },
    {
        "name": "pim",
        "street": "Via Bravetta, 415",
        "lat": 41.8748767,
        "long": 12.4242659,
        "city": "Roma",
        "working_hours": "['7:00-22:00 (continuato)', 'Aperto la domenica8:00-21:00']",
        "picks_up_in_shop": "True",
        "zip_code": "00164"
    }
]