[
    {
        "name": "ma",
        "street": "Via Tiburtina, 427/431",
        "lat": 41.9085936,
        "long": 12.5373067,
        "city": "Roma",
        "working_hours": "['8:00 - 20:30 (continuato)', 'Aperto la domenica8:30 - 20:00']",
        "picks_up_in_shop": "True",
        "zip_code": "00157"
    },
    {
        "name": "ma",
        "street": "Via Tiburtina, 472",
        "lat": 41.9080745,
        "long": 12.5400717,
        "city": "Roma",
        "working_hours": "['8:00 - 20:30 (continuato)', 'Aperto la domenica8:30 - 20:00']",
        "picks_up_in_shop": "True",
        "zip_code": "00185"
    },
    {
        "name": "ma",
        "street": "Via Tiburtina Valeria, km 35",
        "lat": 41.9597095,
        "long": 12.8021341,
        "city": "Tivoli (RM)",
        "working_hours": "['8:00 - 21:00 (continuato)', 'Aperto la domenica8:30 - 20:30']",
        "picks_up_in_shop": "True",
        "zip_code": null
    },
    {
        "name": "ma",
        "street": "Via Padre Semeria, 56",
        "lat": 41.8651033,
        "long": 12.4946516,
        "city": "Roma, Ostiense",
        "working_hours": "['8:00 - 20:30 (continuato)', 'Aperto la domenica8:30 - 20:00']",
        "picks_up_in_shop": "True",
        "zip_code": "00154"
    },
    {
        "name": "ma",
        "street": "Via dei Garofani, 2 ang. Via del Campo sportivo",
        "lat": 41.9562839,
        "long": 12.0834552,
        "city": "Ladispoli (RM)",
        "working_hours": "['8:00 - 20:30 (continuato)', 'Aperto la domenica8:30 - 20:30']",
        "picks_up_in_shop": "True",
        "zip_code": "00055"
    },
    {
        "name": "ma",
        "street": "Largo Emanuele Ruspoli, 24",
        "lat": 41.8499413,
        "long": 12.4533064,
        "city": "Roma, Villa Bonelli",
        "working_hours": "['8:00 - 20:30 (continuato)', 'Aperto la domenica8:30 - 20:00']",
        "picks_up_in_shop": "True",
        "zip_code": "00149"
    },
    {
        "name": "ma",
        "street": "Via delle ombrine, 2",
        "lat": 41.7721238,
        "long": 12.2335008,
        "city": "Fiumicino (RM)",
        "working_hours": "['06.96031570', 'Dal luned\u00ec al sabato 8:00-21:00 (continuato)', 'Aperto la domenica8:30-20:30']",
        "picks_up_in_shop": "True",
        "zip_code": "00054"
    },
    {
        "name": "ma",
        "street": "Via Prenestina, 150",
        "lat": 41.89174819999999,
        "long": 12.5314595,
        "city": "Roma",
        "working_hours": "['8:00 - 20:30 (continuato)', 'Aperto la domenica8:30 - 20:00']",
        "picks_up_in_shop": "True",
        "zip_code": "00176"
    },
    {
        "name": "ma",
        "street": "Via Federico Ozanam, 34/a 46/a",
        "lat": 41.8757501,
        "long": 12.4477769,
        "city": "Roma",
        "working_hours": "['8:00 - 20:30 (continuato)', 'Aperto la domenica8:30 - 20:00']",
        "picks_up_in_shop": "True",
        "zip_code": "00152"
    },
    {
        "name": "ma",
        "street": "Viale Palmiro Togliatti, 234",
        "lat": 41.86408160000001,
        "long": 12.5698789,
        "city": "Roma",
        "working_hours": "['8:00 - 20:30 (continuato)', 'Aperto la domenica8:30 - 20:30']",
        "picks_up_in_shop": "True",
        "zip_code": "00175"
    },
    {
        "name": "ma",
        "street": "Via di Acilia, 171",
        "lat": 41.7791488,
        "long": 12.3701188,
        "city": "Roma, Acilia",
        "working_hours": "['8:00 - 21:00 (continuato)', 'Aperto la domenica8:30 - 20:00']",
        "picks_up_in_shop": "True",
        "zip_code": "00125"
    },
    {
        "name": "ma",
        "street": "Via Carlo Sigonio, 15",
        "lat": 41.8749081,
        "long": 12.5210949,
        "city": "Roma",
        "working_hours": "['Aperto la domenica']",
        "picks_up_in_shop": "True",
        "zip_code": "00179"
    },
    {
        "name": "ma",
        "street": "Via Amalia Bettini, 52/56",
        "lat": 41.964554,
        "long": 12.5289032,
        "city": "Roma",
        "working_hours": "['Questo indirizzo email \u00e8 protetto dagli spambots. \u00c8 necessario abilitare JavaScript per vederlo.', 'Dal luned\u00ec al sabato 8:00-20:30 (continuato)', 'Aperto la domenica8:30-20:00']",
        "picks_up_in_shop": "True",
        "zip_code": "00139"
    }
]