[
    {
        "name": "pewex",
        "street": "Via Merulana, 45/47/49",
        "lat": 41.8945453,
        "long": 12.5006832,
        "city": "Roma",
        "working_hours": "['Aperto la domenica']",
        "picks_up_in_shop": "True",
        "zip_code": "00185"
    },
    {
        "name": "pewex",
        "street": "Piazza Minucciano, 20",
        "lat": 41.9534657,
        "long": 12.5130767,
        "city": "Roma (RM)",
        "working_hours": "['Aperto la domenica']",
        "picks_up_in_shop": "True",
        "zip_code": "00139"
    },
    {
        "name": "pewex",
        "street": "Via Casilina Km. 20,800 Pantano, Montecompatri",
        "lat": 41.865665,
        "long": 12.707708,
        "city": "Roma",
        "working_hours": "['8:00-21:00 (continuato)', 'Aperto la domenica8:00-21:00']",
        "picks_up_in_shop": "True",
        "zip_code": "00040"
    },
    {
        "name": "pewex",
        "street": "Via di Santa Petronilla, 10a-18a",
        "lat": 41.8587519,
        "long": 12.499256,
        "city": "Roma",
        "working_hours": "[]",
        "picks_up_in_shop": "True",
        "zip_code": "00147"
    },
    {
        "name": "pewex",
        "street": "P.zza San Giovanni Battista de La Salle, 36",
        "lat": 41.8116083,
        "long": 12.4459002,
        "city": "Roma (RM)",
        "working_hours": "[]",
        "picks_up_in_shop": "True",
        "zip_code": "00144"
    },
    {
        "name": "pewex",
        "street": "Via Ravenna, 35",
        "lat": 41.9132807,
        "long": 12.5192388,
        "city": "Roma (RM)",
        "working_hours": "['Lun.-Sab. 8:00-22:00 (continuato)', 'Aperto la domenica']",
        "picks_up_in_shop": "True",
        "zip_code": "00161"
    },
    {
        "name": "pewex",
        "street": "Via Acerenza, 4d",
        "lat": 41.8406739,
        "long": 12.5520057,
        "city": "Roma",
        "working_hours": "['06 20 19 21 49', '8:00-21:00 (continuato)', 'Aperto la domenica8:00-21:00']",
        "picks_up_in_shop": "True",
        "zip_code": "00178"
    },
    {
        "name": "pewex",
        "street": "Via Rubicone, 37/39",
        "lat": 41.9201601,
        "long": 12.5001254,
        "city": "Roma (RM)",
        "working_hours": "[]",
        "picks_up_in_shop": "True",
        "zip_code": "00198"
    },
    {
        "name": "pewex",
        "street": "Via Morin, 32/36",
        "lat": 41.9123258,
        "long": 12.4557696,
        "city": "Roma (RM)",
        "working_hours": "['Aperto la domenica']",
        "picks_up_in_shop": "True",
        "zip_code": "00195"
    },
    {
        "name": "pewex",
        "street": "Via Tuscolana km 14,500 - Angolo Via A. Anile",
        "lat": 41.8396146,
        "long": 12.5924086,
        "city": "Vermicino (RM)",
        "working_hours": "['8:00-21:00 (continuato)', 'Aperto la domenica8:00-21:00']",
        "picks_up_in_shop": "True",
        "zip_code": null
    },
    {
        "name": "pewex",
        "street": "Via Filippo Serafini, 73",
        "lat": 41.8618431,
        "long": 12.5745858,
        "city": "Roma",
        "working_hours": "['8:00 - 21:00 (continuato)', 'Aperto la domenica8:00 - 21:00']",
        "picks_up_in_shop": "True",
        "zip_code": "00173"
    },
    {
        "name": "pewex",
        "street": "Via Isole del Capo Verde, ang. via Velieri",
        "lat": 41.737954,
        "long": 12.2743547,
        "city": "Lido di Ostia (RM)",
        "working_hours": "['Aperto la domenica']",
        "picks_up_in_shop": "True",
        "zip_code": "00121"
    },
    {
        "name": "pewex",
        "street": "Via Cervia, 43",
        "lat": 41.8606294,
        "long": 12.2016432,
        "city": "Fregene (RM)",
        "working_hours": "['Aperto la domenica']",
        "picks_up_in_shop": "True",
        "zip_code": "00054"
    },
    {
        "name": "pewex",
        "street": "Via Edoardo d'Onofrio, 122/146",
        "lat": 41.913048,
        "long": 12.5743019,
        "city": "Roma (RM)",
        "working_hours": "['Aperto la domenica']",
        "picks_up_in_shop": "True",
        "zip_code": "00155"
    },
    {
        "name": "pewex",
        "street": "Via Anguillarese, km 5,600",
        "lat": 42.0723234,
        "long": 12.2911008,
        "city": "Anguillara Sabazia (RM)",
        "working_hours": "['8:00-21:00 (continuato)', 'Aperto la domenica']",
        "picks_up_in_shop": "True",
        "zip_code": null
    },
    {
        "name": "pewex",
        "street": "Piazzale Sandro Pertini - C.C. La Nave",
        "lat": 41.7494411,
        "long": 12.6481289,
        "city": "Marino Loc. Frattocchie (RM)",
        "working_hours": "['8:00-21:00 (continuato)', 'Aperto la domenica8:00-21:00']",
        "picks_up_in_shop": "True",
        "zip_code": "00040"
    },
    {
        "name": "pewex",
        "street": "Via di Grotta Perfetta, 360",
        "lat": 41.8448682,
        "long": 12.4906705,
        "city": "Roma",
        "working_hours": "['7:30 - 24:00 (continuato)', 'Aperto la domenica7:30-21:30']",
        "picks_up_in_shop": "True",
        "zip_code": "00142"
    },
    {
        "name": "pewex",
        "street": "Via di Tor Bella Monaca, 469-495",
        "lat": 41.8712956,
        "long": 12.6331204,
        "city": "Roma",
        "working_hours": "['7:30-21:00 (continuato)', 'Aperto la domenica7:30-21:00']",
        "picks_up_in_shop": "True",
        "zip_code": "00133"
    },
    {
        "name": "pewex",
        "street": "Piazza Testaccio, 21/22/23",
        "lat": 41.8795291,
        "long": 12.4765137,
        "city": "Roma",
        "working_hours": "['Aperto la domenica']",
        "picks_up_in_shop": "True",
        "zip_code": "00153"
    },
    {
        "name": "pewex",
        "street": "Via Pacinotti, 10",
        "lat": 41.8709856,
        "long": 12.4687136,
        "city": "Roma (RM)",
        "working_hours": "['Aperto la domenica']",
        "picks_up_in_shop": "True",
        "zip_code": "00146"
    },
    {
        "name": "pewex",
        "street": "Piazza Cola di Rienzo, 86/c",
        "lat": 41.9083325,
        "long": 12.467646,
        "city": "Roma",
        "working_hours": "['Aperto la domenica']",
        "picks_up_in_shop": "True",
        "zip_code": "00192"
    },
    {
        "name": "pewex",
        "street": "Via Milano,19",
        "lat": 42.1411162,
        "long": 12.600274,
        "city": "Fiano Romano (RM)",
        "working_hours": "['8:00-22:00 (continuato)', 'Aperto la domenica']",
        "picks_up_in_shop": "True",
        "zip_code": "00065"
    },
    {
        "name": "pewex",
        "street": "Via Cassia, 2019 (zona Olgiata)",
        "lat": 42.0323563,
        "long": 12.3755488,
        "city": "Roma",
        "working_hours": "['8:00-24:00 (continuato)', 'Aperto la domenica8:00-21:30']",
        "picks_up_in_shop": "True",
        "zip_code": "00123"
    },
    {
        "name": "pewex",
        "street": "Via Fabio Massimo, 35/37",
        "lat": 41.9082104,
        "long": 12.4621859,
        "city": "Roma",
        "working_hours": "['Aperto la domenica']",
        "picks_up_in_shop": "True",
        "zip_code": "00192"
    },
    {
        "name": "pewex",
        "street": "Via Umberto Barbaro, 24 (zona vigne nuove)",
        "lat": 41.95836,
        "long": 12.5393422,
        "city": "Roma",
        "working_hours": "['8:00-21:00 (continuato)', 'Aperto la domenica8:00-21:00']",
        "picks_up_in_shop": "True",
        "zip_code": "00139"
    },
    {
        "name": "pewex",
        "street": "Via del Tintoretto, 320",
        "lat": 41.8332932,
        "long": 12.4913812,
        "city": "Roma",
        "working_hours": "['7:30-21:00 (continuato)', 'Aperto la domenica7:30-21:00']",
        "picks_up_in_shop": "True",
        "zip_code": "00142"
    },
    {
        "name": "pewex",
        "street": "Via Pian Due Torri, 83 (zona Magliana)",
        "lat": 41.84794110000001,
        "long": 12.4640184,
        "city": "Roma",
        "working_hours": "['0699588526', 'Lun.-Dom. 7:30-21:00']",
        "picks_up_in_shop": "True",
        "zip_code": "00146"
    },
    {
        "name": "pewex",
        "street": "Via Gela, 57",
        "lat": 41.8787872,
        "long": 12.520268,
        "city": "Roma",
        "working_hours": "[]",
        "picks_up_in_shop": "True",
        "zip_code": "00182"
    },
    {
        "name": "pewex",
        "street": "Via Ennio Quirino Visconti, 22",
        "lat": 41.9076716,
        "long": 12.4701475,
        "city": "Roma (RM)",
        "working_hours": "['06.99.58.83.09', '8:00-21:00 (continuato)', 'Aperto la domenica8:00-21:00']",
        "picks_up_in_shop": "True",
        "zip_code": "00193"
    },
    {
        "name": "pewex",
        "street": "Viale Kennedy, 80",
        "lat": 41.816078,
        "long": 12.5904987,
        "city": "Ciampino (RM)",
        "working_hours": "['8:00-21:00 (continuato)', 'Aperto la domenica8:00-21:00']",
        "picks_up_in_shop": "True",
        "zip_code": "00043"
    },
    {
        "name": "pewex",
        "street": "Via Cassia, 1705/1707",
        "lat": 42.0069788,
        "long": 12.3790693,
        "city": "Roma",
        "working_hours": "['8:00-24:00 (continuato)', 'Aperto la domenica8:00-21:30']",
        "picks_up_in_shop": "True",
        "zip_code": "00123"
    },
    {
        "name": "pewex",
        "street": "Via P. Quaglia, 120",
        "lat": 41.8682197,
        "long": 12.6411331,
        "city": "Roma",
        "working_hours": "['7:30-20:30 (continuato)', 'Aperto la domenica7:30-20:30']",
        "picks_up_in_shop": "True",
        "zip_code": "00133"
    },
    {
        "name": "pewex",
        "street": "Piazza Santa Maria Liberatrice",
        "lat": 41.8804091,
        "long": 12.4749338,
        "city": "Roma",
        "working_hours": "['Aperto la domenica']",
        "picks_up_in_shop": "True",
        "zip_code": "00153"
    },
    {
        "name": "pewex",
        "street": "Via XX Settembre, 52",
        "lat": 41.9073171,
        "long": 12.4982738,
        "city": "Roma (RM)",
        "working_hours": "['8:00-20:30 (continuato)', 'Aperto la domenica9:00-14:00']",
        "picks_up_in_shop": "True",
        "zip_code": "00187"
    },
    {
        "name": "pewex",
        "street": "Via Tiburtina Valeria km 22,300, C.C. \"Le Palme\"",
        "lat": 41.95371069999999,
        "long": 12.7176661,
        "city": "Tivoli Terme (RM)",
        "working_hours": "['8:00-20:30 (continuato)', 'Aperto la domenica8:00-20:30']",
        "picks_up_in_shop": "True",
        "zip_code": "00011"
    },
    {
        "name": "pewex",
        "street": "Via della Lucchina, 96 - C.C. Gulliver",
        "lat": 41.958356,
        "long": 12.399207,
        "city": "Roma",
        "working_hours": "['8:00 - 20:30 (continuato)', 'Aperto la domenica8:00 - 20:30']",
        "picks_up_in_shop": "True",
        "zip_code": "00135"
    },
    {
        "name": "pewex",
        "street": "Via Casilina, 414",
        "lat": 41.8230618,
        "long": 12.802938,
        "city": "San Cesareo (RM)",
        "working_hours": "['Aperto la domenica']",
        "picks_up_in_shop": "True",
        "zip_code": "00030"
    }
]