[
    {
        "name": "Conad",
        "street": "VIALE TRASTEVERE, 62, Lazio, ROMA, 00153",
        "lat": 41.886379,
        "long": 12.471918,
        "city": "ROMA",
        "zip_code": "00153",
        "working_hours": "Dom - Sab 08:00 - 19:00"
    },
    {
        "name": "Conad",
        "street": "VIA BUONARROTI, 41852, Lazio, ROMA, 00185",
        "lat": 41.8935364299,
        "long": 12.5022311881,
        "city": "ROMA",
        "zip_code": "00185",
        "working_hours": "Dom - Sab 08:00 - 19:00"
    },
    {
        "name": "Conad",
        "street": "VIA GUICCIARDINI, SNC, Lazio, ROMA, 00184",
        "lat": 41.8909967,
        "long": 12.5016216,
        "city": "ROMA",
        "zip_code": "00184",
        "working_hours": "Dom - Sab 08:00 - 19:00"
    },
    {
        "name": "Conad City",
        "street": "PIAZZA DELL'INDIPENDENZA, 28, Lazio, ROMA, 00185",
        "lat": 41.9046301721,
        "long": 12.5020290166,
        "city": "ROMA",
        "zip_code": "00185",
        "working_hours": "Dom - Sab 08:00 - 19:00"
    },
    {
        "name": "Conad",
        "street": "PIAZZA VITTORIO BOTTEGO, 47, Lazio, ROMA, 00154",
        "lat": 41.8744059,
        "long": 12.4781852,
        "city": "ROMA",
        "zip_code": "00154",
        "working_hours": "Dom chiuso Lun - Sab 08:00 - 19:00"
    },
    {
        "name": "Conad City",
        "street": "VIA DEI LIGURI, 9/19, Lazio, ROMA, 00185",
        "lat": 41.8955605,
        "long": 12.5176691,
        "city": "ROMA",
        "zip_code": "00185",
        "working_hours": "Dom - Sab 08:00 - 19:00"
    },
    {
        "name": "Conad City",
        "street": "VIA ARCHIMEDE, SNC, Lazio, ROMA, 00197",
        "lat": 41.923304,
        "long": 12.479046,
        "city": "ROMA",
        "zip_code": "00197",
        "working_hours": "Dom - Sab 08:00 - 19:00"
    },
    {
        "name": "Conad City",
        "street": "VIA ANGELO EMO, 37, Lazio, ROMA, 00136",
        "lat": 41.9047338,
        "long": 12.4473383,
        "city": "ROMA",
        "zip_code": "00136",
        "working_hours": "Dom - Sab 08:00 - 19:00"
    },
    {
        "name": "Conad",
        "street": "PIAZZA DEI RE DI ROMA, 15, Lazio, ROMA, 00183",
        "lat": 41.88128580000001,
        "long": 12.5134464,
        "city": "ROMA",
        "zip_code": "00183",
        "working_hours": "Dom chiuso Lun - Sab 08:00 - 19:00"
    },
    {
        "name": "Conad City",
        "street": "VIA SEBASTIANO ZIANI, 12/14, Lazio, ROMA, 00136",
        "lat": 41.9079086,
        "long": 12.445652,
        "city": "ROMA",
        "zip_code": "00136",
        "working_hours": "Dom - Sab 08:00 - 19:00"
    },
    {
        "name": "Conad",
        "street": "VIA MATERA, 5, Lazio, ROMA, 00182",
        "lat": 41.8830139563,
        "long": 12.5180801936,
        "city": "ROMA",
        "zip_code": "00182",
        "working_hours": "Dom - Sab 08:00 - 19:00"
    },
    {
        "name": "Conad City",
        "street": "VIALE DELLE PROVINCIE, 156, Lazio, ROMA, 00161",
        "lat": 41.9084907,
        "long": 12.5210053,
        "city": "ROMA",
        "zip_code": "00161",
        "working_hours": "Dom chiuso Lun - Sab 08:00 - 19:00"
    },
    {
        "name": "Conad",
        "street": "VIALE GUGLIELMO MARCONI, 176, Lazio, ROMA, 00146",
        "lat": 41.8656383,
        "long": 12.468606799999975,
        "city": "ROMA",
        "zip_code": "00146",
        "working_hours": "Dom chiuso Lun - Sab 08:00 - 19:00"
    },
    {
        "name": "Conad Superstore",
        "street": "VIA DELLA LEGA LOMBARDA, 34, Lazio, ROMA, 00162",
        "lat": 41.9085525,
        "long": 12.5238525,
        "city": "ROMA",
        "zip_code": "00162",
        "working_hours": "Dom chiuso Lun - Sab 08:00 - 19:00"
    },
    {
        "name": "Conad",
        "street": "VIA TARANTO, 210, Lazio, ROMA, 00182",
        "lat": 41.8819642,
        "long": 12.5221409,
        "city": "ROMA",
        "zip_code": "00182",
        "working_hours": "Dom chiuso Lun - Sab 08:00 - 19:00"
    },
    {
        "name": "Conad",
        "street": "PIAZZA BOLOGNA, 60, Lazio, ROMA, 00162",
        "lat": 41.9134586,
        "long": 12.5212033,
        "city": "ROMA",
        "zip_code": "00162",
        "working_hours": "Dom chiuso Lun - Sab 08:00 - 19:00"
    },
    {
        "name": "Conad",
        "street": "PIAZZA LEDRO, 7, Lazio, ROMA, 00199",
        "lat": 41.9236347,
        "long": 12.5101446,
        "city": "ROMA",
        "zip_code": "00199",
        "working_hours": "Dom chiuso Lun - Sab 08:00 - 19:00"
    },
    {
        "name": "Conad",
        "street": "VIA TOMMASO DA CELANO, 78, Lazio, ROMA, 00179",
        "lat": 41.8725222593,
        "long": 12.5146415842,
        "city": "ROMA",
        "zip_code": "00179",
        "working_hours": "Dom - Sab 08:00 - 19:00"
    },
    {
        "name": "Conad",
        "street": "CORSO TRIESTE, 200, Lazio, ROMA, 00100",
        "lat": 41.9237206271,
        "long": 12.5147169549,
        "city": "ROMA",
        "zip_code": "00100",
        "working_hours": "Dom chiuso Lun - Sab 08:00 - 19:00"
    },
    {
        "name": "Conad",
        "street": "VIA IGNAZIO GIORGI, 53/A, Lazio, ROMA, 00162",
        "lat": 41.9199805381,
        "long": 12.5224046689,
        "city": "ROMA",
        "zip_code": "00162",
        "working_hours": "Dom chiuso Lun - Sab 08:00 - 19:00"
    },
    {
        "name": "Conad",
        "street": "VIA ORLANDO DE TOMMASO, SNC, Lazio, ROMA, 00136",
        "lat": 41.9208507,
        "long": 12.441237499999943,
        "city": "ROMA",
        "zip_code": "00136",
        "working_hours": "Dom - Sab 08:00 - 19:00"
    },
    {
        "name": "Conad Superstore",
        "street": "VIA NOCERA UMBRA, 146, Lazio, ROMA, 00181",
        "lat": 41.8778509135,
        "long": 12.5298620481,
        "city": "ROMA",
        "zip_code": "00181",
        "working_hours": "Dom chiuso Lun - Sab 08:00 - 19:00"
    },
    {
        "name": "Conad",
        "street": "PIAZZA DEI GIURECONSULTI, SNC, Lazio, ROMA, 00167",
        "lat": 41.90150149999999,
        "long": 12.425591800000007,
        "city": "ROMA",
        "zip_code": "00167",
        "working_hours": "Dom - Sab 08:00 - 19:00"
    },
    {
        "name": "Conad Superstore",
        "street": "VIA TITO, 15, Lazio, ROMA, 00145",
        "lat": 41.8541570753,
        "long": 12.4869206362,
        "city": "ROMA",
        "zip_code": "00145",
        "working_hours": "Dom - Sab 08:00 - 19:00"
    },
    {
        "name": "Conad",
        "street": "VIA OSTIENSE, 361, Lazio, ROMA, 00146",
        "lat": 41.853643619,
        "long": 12.4774917834,
        "city": "ROMA",
        "zip_code": "00146",
        "working_hours": "Dom - Sab 08:00 - 19:00"
    },
    {
        "name": "Conad City",
        "street": "VIA MIGIURTINIA, 55, Lazio, ROMA, 00199",
        "lat": 41.9305993,
        "long": 12.521243400000003,
        "city": "ROMA",
        "zip_code": "00199",
        "working_hours": "Dom - Sab 08:00 - 19:00"
    },
    {
        "name": "Conad",
        "street": "VIA ROBERTO MALATESTA, 221, Lazio, ROMA, 00176",
        "lat": 41.8876034,
        "long": 12.541378099999974,
        "city": "ROMA",
        "zip_code": "00176",
        "working_hours": "Dom chiuso Lun - Sab 08:00 - 19:00"
    },
    {
        "name": "Conad",
        "street": "CORSO DI FRANCIA, SNC, Lazio, ROMA, 00191",
        "lat": 41.9417411918,
        "long": 12.4711375854,
        "city": "ROMA",
        "zip_code": "00191",
        "working_hours": "Dom - Sab 08:00 - 19:00"
    },
    {
        "name": "Conad City",
        "street": "VIA DI BOCCEA, 242, Lazio, ROMA, 00167",
        "lat": 41.9036753,
        "long": 12.4201658,
        "city": "ROMA",
        "zip_code": "00167",
        "working_hours": "Dom - Sab 08:00 - 19:00"
    },
    {
        "name": "Conad",
        "street": "VIALE SOMALIA, 275, Lazio, ROMA, 00199",
        "lat": 41.9339146559,
        "long": 12.5201319158,
        "city": "ROMA",
        "zip_code": "00199",
        "working_hours": "Dom - Sab 08:00 - 19:00"
    },
    {
        "name": "Conad",
        "street": "VIA ATTILIO AMBROSINI, 183, Lazio, ROMA, 00147",
        "lat": 41.8505164795,
        "long": 12.4918423221,
        "city": "ROMA",
        "zip_code": "00147",
        "working_hours": "Dom chiuso Lun - Sab 08:00 - 19:00"
    },
    {
        "name": "Conad",
        "street": "VIA ISACCO NEWTON, 51, Lazio, ROMA, 00100",
        "lat": 41.8579459889,
        "long": 12.441836223,
        "city": "ROMA",
        "zip_code": "00100",
        "working_hours": "Dom chiuso Lun - Sab 08:00 - 19:00"
    },
    {
        "name": "Conad Superstore",
        "street": "VIA DELLA MAGLIANA, 224, Lazio, ROMA, 00146",
        "lat": 41.848719609,
        "long": 12.4577219412,
        "city": "ROMA",
        "zip_code": "00146",
        "working_hours": "Dom chiuso Lun - Sab 08:00 - 19:00"
    },
    {
        "name": "Conad",
        "street": "VIA CESARE FERRERO DI CAMBIANO, 56, Lazio, ROMA, 00191",
        "lat": 41.947997,
        "long": 12.466839,
        "city": "ROMA",
        "zip_code": "00191",
        "working_hours": "Dom - Sab 08:00 - 19:00"
    },
    {
        "name": "Conad",
        "street": "VIA CARDINALE DI YORK, 2, Lazio, ROMA, 00148",
        "lat": 41.8653993294,
        "long": 12.4238434429,
        "city": "ROMA",
        "zip_code": "00148",
        "working_hours": "Dom chiuso Lun - Sab 08:00 - 19:00"
    },
    {
        "name": "Conad",
        "street": "VIA DELLA PISANA, 278, Lazio, ROMA, 00100",
        "lat": 41.8761838787,
        "long": 12.4148863927,
        "city": "ROMA",
        "zip_code": "00100",
        "working_hours": "Dom chiuso Lun - Sab 08:00 - 19:00"
    },
    {
        "name": "Conad",
        "street": "VIA MARCO CELIO RUFO, 22, Lazio, ROMA, 00175",
        "lat": 41.8648188142,
        "long": 12.5519200321,
        "city": "ROMA",
        "zip_code": "00175",
        "working_hours": "Dom - Sab 08:00 - 19:00"
    },
    {
        "name": "Conad Superstore",
        "street": "VIA DEI SAMPIERI, 92, Lazio, ROMA, 00148",
        "lat": 41.8532001,
        "long": 12.4171168,
        "city": "ROMA",
        "zip_code": "00148",
        "working_hours": "Dom - Sab 08:00 - 19:00"
    },
    {
        "name": "Conad Superstore",
        "street": "VIA MONTE CERVIALTO, 135, Lazio, ROMA, 00138",
        "lat": 41.954353,
        "long": 12.523222,
        "city": "ROMA",
        "zip_code": "00138",
        "working_hours": "Dom chiuso Lun - Sab 08:00 - 19:00"
    },
    {
        "name": "Conad",
        "street": "VIALE KANT, 289, Lazio, ROMA, 00156",
        "lat": 41.9358204073,
        "long": 12.5531607214,
        "city": "ROMA",
        "zip_code": "00156",
        "working_hours": "Dom - Sab 08:00 - 19:00"
    },
    {
        "name": "Conad",
        "street": "VIA PONZIO COMINIO, 19, Lazio, ROMA, 00175",
        "lat": 41.8603511,
        "long": 12.557457,
        "city": "ROMA",
        "zip_code": "00175",
        "working_hours": "Dom chiuso Lun - Sab 08:00 - 19:00"
    },
    {
        "name": "Conad City",
        "street": "VIA CORNELIA, 154, Lazio, ROMA, 00100",
        "lat": 41.902718,
        "long": 12.390274,
        "city": "ROMA",
        "zip_code": "00100",
        "working_hours": "Dom - Sab 08:00 - 19:00"
    },
    {
        "name": "Conad",
        "street": "PIAZZA OTTAVIANO VIMERCATI, 55, Lazio, ROMA, 00139",
        "lat": 41.9590502652,
        "long": 12.5244053453,
        "city": "ROMA",
        "zip_code": "00139",
        "working_hours": "Dom - Sab 08:00 - 19:00"
    },
    {
        "name": "Conad",
        "street": "VIA TUSCOLANA, 881, Lazio, ROMA, 00174",
        "lat": 41.85751,
        "long": 12.561409,
        "city": "ROMA",
        "zip_code": "00174",
        "working_hours": "Dom chiuso Lun - Sab 08:00 - 19:00"
    },
    {
        "name": "Conad",
        "street": "VIA DI CASAL DEI PAZZI, 35, Lazio, ROMA, 00156",
        "lat": 41.9259935,
        "long": 12.5704567,
        "city": "ROMA",
        "zip_code": "00156",
        "working_hours": "Dom chiuso Lun - Sab 08:00 - 19:00"
    },
    {
        "name": "Conad",
        "street": "VIA CONVERSANO ANG.VIA TRANI, SNC, Lazio, ROMA, 00171",
        "lat": 41.8935079,
        "long": 12.5787483,
        "city": "ROMA",
        "zip_code": "00171",
        "working_hours": "Dom chiuso Lun - Sab 08:00 - 19:00"
    },
    {
        "name": "Conad",
        "street": "LARGO CASALE DEGLI INGLESI, 21, Lazio, ROMA, 00148",
        "lat": 41.837789,
        "long": 12.42597473,
        "city": "ROMA",
        "zip_code": "00148",
        "working_hours": "Dom chiuso Lun - Sab 08:00 - 19:00"
    },
    {
        "name": "Conad Superstore",
        "street": "VIA APPIA NUOVA, 889, Lazio, ROMA, 00178",
        "lat": 41.8440864015,
        "long": 12.5516323834,
        "city": "ROMA",
        "zip_code": "00178"
    },
    {
        "name": "Conad",
        "street": "PIAZZA DEI DECEMVIRI, 6, Lazio, ROMA, 00175",
        "lat": 41.8590033,
        "long": 12.5684574,
        "city": "ROMA",
        "zip_code": "00175",
        "working_hours": "Dom chiuso Lun - Sab 08:00 - 19:00"
    },
    {
        "name": "Conad City",
        "street": "VIA CASSIA, 865, Lazio, ROMA, 00189",
        "lat": 41.9692484,
        "long": 12.436311700000033,
        "city": "ROMA",
        "zip_code": "00189",
        "working_hours": "Dom - Sab 08:00 - 19:00"
    },
    {
        "name": "Spazio Conad",
        "street": "VIA AROLA, 55, Lazio, ROMA, 00166",
        "lat": 41.931625,
        "long": 12.381893,
        "city": "ROMA",
        "zip_code": "00166",
        "working_hours": "Dom - Sab 08:00 - 19:00"
    },
    {
        "name": "Conad Superstore",
        "street": "VIA DI TORRE SPACCATA, 110, Lazio, ROMA, 00173",
        "lat": 41.858717,
        "long": 12.5865529,
        "city": "ROMA",
        "zip_code": "00173",
        "working_hours": "Dom chiuso Lun - Sab 08:00 - 19:00"
    },
    {
        "name": "Conad",
        "street": "VIA DELLE RONDINI, 32, Lazio, ROMA, 00169",
        "lat": 41.8660111819,
        "long": 12.5927906111,
        "city": "ROMA",
        "zip_code": "00169",
        "working_hours": "Dom chiuso Lun - Sab 08:00 - 19:00"
    },
    {
        "name": "Spazio Conad",
        "street": "VIA ALBERTO LIONELLO, 201, Lazio, ROMA, 00139",
        "lat": 41.97329059999999,
        "long": 12.5407517,
        "city": "ROMA",
        "zip_code": "00139",
        "working_hours": "Dom chiuso Lun - Sab 08:00 - 19:00"
    },
    {
        "name": "Conad Superstore",
        "street": "VIA DELLA CECCHIGNOLA ANGOLO VIA KOBLER, snc, Lazio, ROMA, 00143",
        "lat": 41.811592898681454,
        "long": 12.512810214315309,
        "city": "ROMA",
        "zip_code": "00143",
        "working_hours": "Dom chiuso Lun - Sab 08:00 - 19:00"
    },
    {
        "name": "Conad City",
        "street": "VIA IPOGEO DEGLI OTTAVI, 61/79, Lazio, ROMA, 00135",
        "lat": 41.965165576,
        "long": 12.404248165,
        "city": "ROMA",
        "zip_code": "00135",
        "working_hours": "Dom - Sab 08:00 - 19:00"
    },
    {
        "name": "Conad",
        "street": "VIA ARDEATINA, 850, Lazio, ROMA, 00178",
        "lat": 41.8025992,
        "long": 12.5357051,
        "city": "ROMA",
        "zip_code": "00178",
        "working_hours": "Dom chiuso Lun - Sab 08:00 - 19:00"
    },
    {
        "name": "Conad",
        "street": "VIA POPPEA SABINA, 19, Lazio, ROMA, 00131",
        "lat": 41.9494320313,
        "long": 12.6018403843,
        "city": "ROMA",
        "zip_code": "00131",
        "working_hours": "Dom chiuso Lun - Sab 08:00 - 19:00"
    },
    {
        "name": "Conad Superstore",
        "street": "VIA RINALDO D'AMI, 2/4, Lazio, ROMA, 00127",
        "lat": 41.8002985643,
        "long": 12.4281575385,
        "city": "ROMA",
        "zip_code": "00127",
        "working_hours": "Dom chiuso Lun - Sab 08:00 - 19:00"
    },
    {
        "name": "Conad",
        "street": "VIA CASTEL DI LEVA, 261, Lazio, ROMA, 00134",
        "lat": 41.7871133,
        "long": 12.5182933,
        "city": "ROMA",
        "zip_code": "00134",
        "working_hours": "Dom - Sab 08:00 - 19:00"
    },
    {
        "name": "Conad",
        "street": "VIA NOMENTANA KM. 16,1, SNC, Lazio, GUIDONIA MONTECELIO, 00012",
        "lat": 41.9817844,
        "long": 12.6166845,
        "city": "GUIDONIA MONTECELIO",
        "zip_code": "00012",
        "working_hours": "Dom - Sab 08:00 - 19:00"
    },
    {
        "name": "Supermercato Tigre",
        "street": "Largo Porta Romana, 63100 Ascoli Piceno AP",
        "lat": "42.8539314",
        "long": "13.5661023",
        "city": "Ascoli Piceno",
        "working_hours": "{'mon': {'morningOpen': '08:00', 'morningClose': '20:00', 'eveningOpen': '', 'eveningClose': ''}, 'tue': {'morningOpen': '08:00', 'morningClose': '20:00', 'eveningOpen': '', 'eveningClose': ''}, 'wed': {'morningOpen': '08:00', 'morningClose': '20:00', 'eveningOpen': '', 'eveningClose': ''}, 'thu': {'morningOpen': '08:00', 'morningClose': '20:00', 'eveningOpen': '', 'eveningClose': ''}, 'fri': {'morningOpen': '08:00', 'morningClose': '20:00', 'eveningOpen': '', 'eveningClose': ''}, 'sat': {'morningOpen': '08:00', 'morningClose': '20:00', 'eveningOpen': '', 'eveningClose': ''}, 'sun': {'morningOpen': '09:00', 'morningClose': '13:00', 'eveningOpen': '', 'eveningClose': ''}}",
        "picks_up_in_shop": "True"
    },
    {
        "name": "Supermercato Tigre",
        "street": "Viale dei Platani, snc, 63100 Ascoli Piceno, Localita' Monticelli AP",
        "lat": "42.8496852",
        "long": "13.6226707",
        "city": "Ascoli Piceno, Localita' Monticelli",
        "working_hours": "{'mon': {'morningOpen': '08:00', 'morningClose': '20:30', 'eveningOpen': '', 'eveningClose': ''}, 'tue': {'morningOpen': '08:00', 'morningClose': '20:30', 'eveningOpen': '', 'eveningClose': ''}, 'wed': {'morningOpen': '08:00', 'morningClose': '20:30', 'eveningOpen': '', 'eveningClose': ''}, 'thu': {'morningOpen': '08:00', 'morningClose': '20:30', 'eveningOpen': '', 'eveningClose': ''}, 'fri': {'morningOpen': '08:00', 'morningClose': '20:30', 'eveningOpen': '', 'eveningClose': ''}, 'sat': {'morningOpen': '08:00', 'morningClose': '20:30', 'eveningOpen': '', 'eveningClose': ''}, 'sun': {'morningOpen': '08:30', 'morningClose': '13:30', 'eveningOpen': '', 'eveningClose': ''}}",
        "picks_up_in_shop": "True"
    },
    {
        "name": "Ipermercato Oasi",
        "street": "Via Del Commercio 52, 63100 Ascoli Piceno AP",
        "lat": "42.8460072",
        "long": "13.6233798",
        "city": "Ascoli Piceno",
        "working_hours": "{'mon': {'morningOpen': '08:30', 'morningClose': '21:00', 'eveningOpen': '', 'eveningClose': ''}, 'tue': {'morningOpen': '08:30', 'morningClose': '21:00', 'eveningOpen': '', 'eveningClose': ''}, 'wed': {'morningOpen': '08:30', 'morningClose': '21:00', 'eveningOpen': '', 'eveningClose': ''}, 'thu': {'morningOpen': '08:30', 'morningClose': '21:00', 'eveningOpen': '', 'eveningClose': ''}, 'fri': {'morningOpen': '08:30', 'morningClose': '21:00', 'eveningOpen': '', 'eveningClose': ''}, 'sat': {'morningOpen': '08:30', 'morningClose': '21:00', 'eveningOpen': '', 'eveningClose': ''}, 'sun': {'morningOpen': '09:00', 'morningClose': '21:00', 'eveningOpen': '', 'eveningClose': ''}}",
        "picks_up_in_shop": "True"
    },
    {
        "name": "Supermercato Tigre",
        "street": "Via Enrico Mattei, 14, 63074 Porto D'Ascoli AP",
        "lat": "42.91794280000001",
        "long": "13.8906562",
        "city": "Porto D'Ascoli",
        "working_hours": "{'mon': {'morningOpen': '08:00', 'morningClose': '20:30', 'eveningOpen': '', 'eveningClose': ''}, 'tue': {'morningOpen': '08:00', 'morningClose': '20:30', 'eveningOpen': '', 'eveningClose': ''}, 'wed': {'morningOpen': '08:00', 'morningClose': '20:30', 'eveningOpen': '', 'eveningClose': ''}, 'thu': {'morningOpen': '08:00', 'morningClose': '20:30', 'eveningOpen': '', 'eveningClose': ''}, 'fri': {'morningOpen': '08:00', 'morningClose': '20:30', 'eveningOpen': '', 'eveningClose': ''}, 'sat': {'morningOpen': '08:00', 'morningClose': '20:30', 'eveningOpen': '', 'eveningClose': ''}, 'sun': {'morningOpen': '09:00', 'morningClose': '20:00', 'eveningOpen': '', 'eveningClose': ''}}",
        "picks_up_in_shop": "True"
    },
    {
        "name": "Supermercato Tigre",
        "street": "Via del Beato Cesidio, 31, 67100 L'Aquila AQ",
        "lat": "42.3589289",
        "long": "13.3867801",
        "city": "L'Aquila",
        "working_hours": "{'mon': {'morningOpen': '08:00', 'morningClose': '20:30', 'eveningOpen': '', 'eveningClose': ''}, 'tue': {'morningOpen': '08:00', 'morningClose': '20:30', 'eveningOpen': '', 'eveningClose': ''}, 'wed': {'morningOpen': '08:00', 'morningClose': '20:30', 'eveningOpen': '', 'eveningClose': ''}, 'thu': {'morningOpen': '08:00', 'morningClose': '20:30', 'eveningOpen': '', 'eveningClose': ''}, 'fri': {'morningOpen': '08:00', 'morningClose': '20:30', 'eveningOpen': '', 'eveningClose': ''}, 'sat': {'morningOpen': '08:00', 'morningClose': '20:30', 'eveningOpen': '', 'eveningClose': ''}, 'sun': {'morningOpen': '08:30', 'morningClose': '20:30', 'eveningOpen': '', 'eveningClose': ''}}",
        "picks_up_in_shop": "True"
    },
    {
        "name": "Ipermercato Oasi",
        "street": "Corso Umberto I, 334, 65015 Montesilvano PE",
        "lat": "42.5074244",
        "long": "14.1588959",
        "city": "Montesilvano",
        "working_hours": "{'mon': {'morningOpen': '08:00', 'morningClose': '20:30', 'eveningOpen': '', 'eveningClose': ''}, 'tue': {'morningOpen': '08:00', 'morningClose': '20:30', 'eveningOpen': '', 'eveningClose': ''}, 'wed': {'morningOpen': '08:00', 'morningClose': '20:30', 'eveningOpen': '', 'eveningClose': ''}, 'thu': {'morningOpen': '08:00', 'morningClose': '20:30', 'eveningOpen': '', 'eveningClose': ''}, 'fri': {'morningOpen': '08:00', 'morningClose': '20:30', 'eveningOpen': '', 'eveningClose': ''}, 'sat': {'morningOpen': '08:00', 'morningClose': '20:30', 'eveningOpen': '', 'eveningClose': ''}, 'sun': {'morningOpen': '08:30', 'morningClose': '20:30', 'eveningOpen': '', 'eveningClose': ''}}",
        "picks_up_in_shop": "True"
    },
    {
        "name": "Supermercato Tigre",
        "street": "Via Nazionale Adriatica Nord, 65129 Pescara PE",
        "lat": "42.48608629999999",
        "long": "14.1853774",
        "city": "Pescara",
        "working_hours": "{'mon': {'morningOpen': '08:30', 'morningClose': '20:30', 'eveningOpen': '', 'eveningClose': ''}, 'tue': {'morningOpen': '08:30', 'morningClose': '20:30', 'eveningOpen': '', 'eveningClose': ''}, 'wed': {'morningOpen': '08:30', 'morningClose': '20:30', 'eveningOpen': '', 'eveningClose': ''}, 'thu': {'morningOpen': '08:30', 'morningClose': '20:30', 'eveningOpen': '', 'eveningClose': ''}, 'fri': {'morningOpen': '08:30', 'morningClose': '20:30', 'eveningOpen': '', 'eveningClose': ''}, 'sat': {'morningOpen': '08:30', 'morningClose': '20:30', 'eveningOpen': '', 'eveningClose': ''}, 'sun': {'morningOpen': '08:30', 'morningClose': '20:30', 'eveningOpen': '', 'eveningClose': ''}}",
        "picks_up_in_shop": "True"
    },
    {
        "name": "Supermercato Tigre",
        "street": "Via Martiri della Resistenza, 06049 Spoleto PG",
        "lat": "42.73555460000001",
        "long": "12.7313388",
        "city": "Spoleto",
        "working_hours": "{'mon': {'morningOpen': '08:30', 'morningClose': '20:00', 'eveningOpen': '', 'eveningClose': ''}, 'tue': {'morningOpen': '08:30', 'morningClose': '20:00', 'eveningOpen': '', 'eveningClose': ''}, 'wed': {'morningOpen': '08:30', 'morningClose': '20:00', 'eveningOpen': '', 'eveningClose': ''}, 'thu': {'morningOpen': '08:30', 'morningClose': '20:00', 'eveningOpen': '', 'eveningClose': ''}, 'fri': {'morningOpen': '08:30', 'morningClose': '20:00', 'eveningOpen': '', 'eveningClose': ''}, 'sat': {'morningOpen': '08:30', 'morningClose': '20:00', 'eveningOpen': '', 'eveningClose': ''}, 'sun': {'morningOpen': '09:00', 'morningClose': '13:00', 'eveningOpen': '', 'eveningClose': ''}}",
        "picks_up_in_shop": "True"
    },
    {
        "name": "Supermercato Tigre",
        "street": "Via Arapietra, 65, 65124 Pescara PE",
        "lat": "42.4683571",
        "long": "14.1980666",
        "city": "Pescara",
        "working_hours": "{'mon': {'morningOpen': '08:00', 'morningClose': '21:00', 'eveningOpen': '', 'eveningClose': ''}, 'tue': {'morningOpen': '08:00', 'morningClose': '21:00', 'eveningOpen': '', 'eveningClose': ''}, 'wed': {'morningOpen': '08:00', 'morningClose': '21:00', 'eveningOpen': '', 'eveningClose': ''}, 'thu': {'morningOpen': '08:00', 'morningClose': '21:00', 'eveningOpen': '', 'eveningClose': ''}, 'fri': {'morningOpen': '08:00', 'morningClose': '21:00', 'eveningOpen': '', 'eveningClose': ''}, 'sat': {'morningOpen': '08:00', 'morningClose': '21:00', 'eveningOpen': '', 'eveningClose': ''}, 'sun': {'morningOpen': '09:00', 'morningClose': '13:00', 'eveningOpen': '', 'eveningClose': ''}}",
        "picks_up_in_shop": "True"
    },
    {
        "name": "Supermercato Tigre",
        "street": "Via Picena, 80, 66100 Chieti CH",
        "lat": "42.3542991",
        "long": "14.1736945",
        "city": "Chieti",
        "working_hours": "{'mon': {'morningOpen': '08:00', 'morningClose': '20:30', 'eveningOpen': '', 'eveningClose': ''}, 'tue': {'morningOpen': '08:00', 'morningClose': '20:30', 'eveningOpen': '', 'eveningClose': ''}, 'wed': {'morningOpen': '08:00', 'morningClose': '20:30', 'eveningOpen': '', 'eveningClose': ''}, 'thu': {'morningOpen': '08:00', 'morningClose': '20:30', 'eveningOpen': '', 'eveningClose': ''}, 'fri': {'morningOpen': '08:00', 'morningClose': '20:30', 'eveningOpen': '', 'eveningClose': ''}, 'sat': {'morningOpen': '08:00', 'morningClose': '20:30', 'eveningOpen': '', 'eveningClose': ''}, 'sun': {'morningOpen': '09:00', 'morningClose': '13:00', 'eveningOpen': '', 'eveningClose': ''}}",
        "picks_up_in_shop": "True"
    },
    {
        "name": "Ipermercato Oasi",
        "street": "Via Nazionale Adriatica Nord, 1, 66023 Francavilla al Mare CH",
        "lat": "42.4239006",
        "long": "14.2779016",
        "city": "Francavilla al Mare",
        "working_hours": "{'mon': {'morningOpen': '08:30', 'morningClose': '20:30', 'eveningOpen': '', 'eveningClose': ''}, 'tue': {'morningOpen': '08:30', 'morningClose': '20:30', 'eveningOpen': '', 'eveningClose': ''}, 'wed': {'morningOpen': '08:30', 'morningClose': '20:30', 'eveningOpen': '', 'eveningClose': ''}, 'thu': {'morningOpen': '08:30', 'morningClose': '20:30', 'eveningOpen': '', 'eveningClose': ''}, 'fri': {'morningOpen': '08:30', 'morningClose': '20:30', 'eveningOpen': '', 'eveningClose': ''}, 'sat': {'morningOpen': '08:30', 'morningClose': '20:30', 'eveningOpen': '', 'eveningClose': ''}, 'sun': {'morningOpen': '08:30', 'morningClose': '20:30', 'eveningOpen': '', 'eveningClose': ''}}",
        "picks_up_in_shop": "True"
    },
    {
        "name": "Ipermercato Oasi",
        "street": "Via Giulio Pastore, 30, 60131 Ancona AN",
        "lat": "43.5715487",
        "long": "13.5096236",
        "city": "Ancona",
        "working_hours": "{'mon': {'morningOpen': '08:00', 'morningClose': '21:00', 'eveningOpen': '', 'eveningClose': ''}, 'tue': {'morningOpen': '08:00', 'morningClose': '21:00', 'eveningOpen': '', 'eveningClose': ''}, 'wed': {'morningOpen': '08:00', 'morningClose': '21:00', 'eveningOpen': '', 'eveningClose': ''}, 'thu': {'morningOpen': '08:00', 'morningClose': '21:00', 'eveningOpen': '', 'eveningClose': ''}, 'fri': {'morningOpen': '08:00', 'morningClose': '21:00', 'eveningOpen': '', 'eveningClose': ''}, 'sat': {'morningOpen': '08:00', 'morningClose': '21:00', 'eveningOpen': '', 'eveningClose': ''}, 'sun': {'morningOpen': '09:00', 'morningClose': '21:00', 'eveningOpen': '', 'eveningClose': ''}}",
        "picks_up_in_shop": "True"
    },
    {
        "name": "Supermercato Tigre",
        "street": "Via Vincenzo Falcone, 67051 Avezzano AQ",
        "lat": "42.0404243",
        "long": "13.4229688",
        "city": "Avezzano",
        "working_hours": "{'mon': {'morningOpen': '08:00', 'morningClose': '20:00', 'eveningOpen': '', 'eveningClose': ''}, 'tue': {'morningOpen': '08:00', 'morningClose': '20:00', 'eveningOpen': '', 'eveningClose': ''}, 'wed': {'morningOpen': '08:00', 'morningClose': '20:00', 'eveningOpen': '', 'eveningClose': ''}, 'thu': {'morningOpen': '08:00', 'morningClose': '20:00', 'eveningOpen': '', 'eveningClose': ''}, 'fri': {'morningOpen': '08:00', 'morningClose': '20:00', 'eveningOpen': '', 'eveningClose': ''}, 'sat': {'morningOpen': '08:00', 'morningClose': '20:00', 'eveningOpen': '', 'eveningClose': ''}, 'sun': {'morningOpen': '09:00', 'morningClose': '20:00', 'eveningOpen': '', 'eveningClose': ''}}",
        "picks_up_in_shop": "True"
    },
    {
        "name": "Ipermercato Oasi",
        "street": "Viale Centova, snc, 06128 Perugia PG",
        "lat": "43.10085309999999",
        "long": "12.3591441",
        "city": "Perugia",
        "working_hours": "{'mon': {'morningOpen': '08:30', 'morningClose': '20:30', 'eveningOpen': '', 'eveningClose': ''}, 'tue': {'morningOpen': '08:30', 'morningClose': '20:30', 'eveningOpen': '', 'eveningClose': ''}, 'wed': {'morningOpen': '08:30', 'morningClose': '20:30', 'eveningOpen': '', 'eveningClose': ''}, 'thu': {'morningOpen': '08:30', 'morningClose': '20:30', 'eveningOpen': '', 'eveningClose': ''}, 'fri': {'morningOpen': '08:30', 'morningClose': '20:30', 'eveningOpen': '', 'eveningClose': ''}, 'sat': {'morningOpen': '08:30', 'morningClose': '20:30', 'eveningOpen': '', 'eveningClose': ''}, 'sun': {'morningOpen': '09:00', 'morningClose': '20:00', 'eveningOpen': '', 'eveningClose': ''}}",
        "picks_up_in_shop": "True"
    },
    {
        "name": "Ipermercato Oasi",
        "street": "Via Filippo Turati, 32, 06073 Corciano PG",
        "lat": "43.1023293",
        "long": "12.3046365",
        "city": "Corciano",
        "working_hours": "{'mon': {'morningOpen': '08:00', 'morningClose': '21:00', 'eveningOpen': '', 'eveningClose': ''}, 'tue': {'morningOpen': '08:00', 'morningClose': '21:00', 'eveningOpen': '', 'eveningClose': ''}, 'wed': {'morningOpen': '08:00', 'morningClose': '21:00', 'eveningOpen': '', 'eveningClose': ''}, 'thu': {'morningOpen': '08:00', 'morningClose': '21:00', 'eveningOpen': '', 'eveningClose': ''}, 'fri': {'morningOpen': '08:00', 'morningClose': '21:00', 'eveningOpen': '', 'eveningClose': ''}, 'sat': {'morningOpen': '08:00', 'morningClose': '21:00', 'eveningOpen': '', 'eveningClose': ''}, 'sun': {'morningOpen': '08:00', 'morningClose': '21:00', 'eveningOpen': '', 'eveningClose': ''}}",
        "picks_up_in_shop": "True"
    },
    {
        "name": "Supermercato Tigre",
        "street": "Via Pedemontana, 88, 00036 PALESTRINA RM",
        "lat": "41.8412735",
        "long": "12.8720899",
        "city": "PALESTRINA",
        "working_hours": "{'mon': {'morningOpen': '08:00', 'morningClose': '20:00', 'eveningOpen': '', 'eveningClose': ''}, 'tue': {'morningOpen': '08:00', 'morningClose': '20:00', 'eveningOpen': '', 'eveningClose': ''}, 'wed': {'morningOpen': '08:00', 'morningClose': '20:00', 'eveningOpen': '', 'eveningClose': ''}, 'thu': {'morningOpen': '08:00', 'morningClose': '20:00', 'eveningOpen': '', 'eveningClose': ''}, 'fri': {'morningOpen': '08:00', 'morningClose': '20:00', 'eveningOpen': '', 'eveningClose': ''}, 'sat': {'morningOpen': '08:00', 'morningClose': '20:00', 'eveningOpen': '', 'eveningClose': ''}, 'sun': {'morningOpen': '09:00', 'morningClose': '13:00', 'eveningOpen': '', 'eveningClose': ''}}",
        "picks_up_in_shop": "True"
    },
    {
        "name": "Supermercato Tigre",
        "street": "Via T. Boetti Valvassura, 110, 00139 Roma RM",
        "lat": "41.959978",
        "long": "12.5351033",
        "city": "Roma",
        "working_hours": "{'mon': {'morningOpen': '08:00', 'morningClose': '20:00', 'eveningOpen': '', 'eveningClose': ''}, 'tue': {'morningOpen': '08:00', 'morningClose': '20:00', 'eveningOpen': '', 'eveningClose': ''}, 'wed': {'morningOpen': '08:00', 'morningClose': '20:00', 'eveningOpen': '', 'eveningClose': ''}, 'thu': {'morningOpen': '08:00', 'morningClose': '20:00', 'eveningOpen': '', 'eveningClose': ''}, 'fri': {'morningOpen': '08:00', 'morningClose': '20:00', 'eveningOpen': '', 'eveningClose': ''}, 'sat': {'morningOpen': '08:00', 'morningClose': '20:00', 'eveningOpen': '', 'eveningClose': ''}, 'sun': {'morningOpen': '08:00', 'morningClose': '13:30', 'eveningOpen': '', 'eveningClose': ''}}",
        "picks_up_in_shop": "True"
    },
    {
        "name": "Supermercato Tigre",
        "street": "Via Montebuono, 8, 00199 Roma RM",
        "lat": "41.93363830000001",
        "long": "12.5130374",
        "city": "Roma",
        "working_hours": "{'mon': {'morningOpen': '08:00', 'morningClose': '21:00', 'eveningOpen': '', 'eveningClose': ''}, 'tue': {'morningOpen': '08:00', 'morningClose': '21:00', 'eveningOpen': '', 'eveningClose': ''}, 'wed': {'morningOpen': '08:00', 'morningClose': '21:00', 'eveningOpen': '', 'eveningClose': ''}, 'thu': {'morningOpen': '08:00', 'morningClose': '21:00', 'eveningOpen': '', 'eveningClose': ''}, 'fri': {'morningOpen': '08:00', 'morningClose': '21:00', 'eveningOpen': '', 'eveningClose': ''}, 'sat': {'morningOpen': '08:00', 'morningClose': '21:00', 'eveningOpen': '', 'eveningClose': ''}, 'sun': {'morningOpen': '08:30', 'morningClose': '20:00', 'eveningOpen': '', 'eveningClose': ''}}",
        "picks_up_in_shop": "True"
    },
    {
        "name": "Supermercato Tigre",
        "street": "Viale Eritrea, 75, 00199 Roma RM",
        "lat": "41.9268843",
        "long": "12.5156112",
        "city": "Roma",
        "working_hours": "{'mon': {'morningOpen': '08:00', 'morningClose': '20:30', 'eveningOpen': '', 'eveningClose': ''}, 'tue': {'morningOpen': '08:00', 'morningClose': '20:30', 'eveningOpen': '', 'eveningClose': ''}, 'wed': {'morningOpen': '08:00', 'morningClose': '20:30', 'eveningOpen': '', 'eveningClose': ''}, 'thu': {'morningOpen': '08:00', 'morningClose': '20:30', 'eveningOpen': '', 'eveningClose': ''}, 'fri': {'morningOpen': '08:00', 'morningClose': '20:30', 'eveningOpen': '', 'eveningClose': ''}, 'sat': {'morningOpen': '08:00', 'morningClose': '20:30', 'eveningOpen': '', 'eveningClose': ''}, 'sun': {'morningOpen': '09:00', 'morningClose': '13:30', 'eveningOpen': '', 'eveningClose': ''}}",
        "picks_up_in_shop": "True"
    },
    {
        "name": "Supermercato Tigre",
        "street": "Viale Liegi, 29, 00198 Roma RM",
        "lat": "41.9215852",
        "long": "12.4943683",
        "city": "Roma",
        "working_hours": "{'mon': {'morningOpen': '08:00', 'morningClose': '21:00', 'eveningOpen': '', 'eveningClose': ''}, 'tue': {'morningOpen': '08:00', 'morningClose': '21:00', 'eveningOpen': '', 'eveningClose': ''}, 'wed': {'morningOpen': '08:00', 'morningClose': '21:00', 'eveningOpen': '', 'eveningClose': ''}, 'thu': {'morningOpen': '08:00', 'morningClose': '21:00', 'eveningOpen': '', 'eveningClose': ''}, 'fri': {'morningOpen': '08:00', 'morningClose': '21:00', 'eveningOpen': '', 'eveningClose': ''}, 'sat': {'morningOpen': '08:00', 'morningClose': '21:00', 'eveningOpen': '', 'eveningClose': ''}, 'sun': {'morningOpen': '08:30', 'morningClose': '20:00', 'eveningOpen': '', 'eveningClose': ''}}",
        "picks_up_in_shop": "True"
    },
    {
        "name": "Supermercato Tigre",
        "street": "Piazza Trento e Trieste, 11, 00043 Ciampino RM",
        "lat": "41.80154139999999",
        "long": "12.5980664",
        "city": "Ciampino",
        "working_hours": "{'mon': {'morningOpen': '08:00', 'morningClose': '20:00', 'eveningOpen': '', 'eveningClose': ''}, 'tue': {'morningOpen': '08:00', 'morningClose': '20:00', 'eveningOpen': '', 'eveningClose': ''}, 'wed': {'morningOpen': '08:00', 'morningClose': '20:00', 'eveningOpen': '', 'eveningClose': ''}, 'thu': {'morningOpen': '08:00', 'morningClose': '20:00', 'eveningOpen': '', 'eveningClose': ''}, 'fri': {'morningOpen': '08:00', 'morningClose': '20:00', 'eveningOpen': '', 'eveningClose': ''}, 'sat': {'morningOpen': '08:00', 'morningClose': '20:00', 'eveningOpen': '', 'eveningClose': ''}, 'sun': {'morningOpen': '08:30', 'morningClose': '20:00', 'eveningOpen': '', 'eveningClose': ''}}",
        "picks_up_in_shop": "True"
    },
	{
		"name": "ipertriscount",
		"street": "Via dell'Arco di Travertino, 88/94",
		"lat": 41.8650337,
		"long": 12.5336598,
		"city": "Roma",
		"working_hours": "['7:30 - 21:00 (continuato)', 'Aperto la domenica8:00 - 21:00']",
		"picks_up_in_shopTruezip_code": "00179"
	},
	{
		"name": "ipertriscount",
		"street": "Via Domenico De Dominicis, 42",
		"lat": 41.90210769999999,
		"long": 12.5358778,
		"city": "Roma",
		"working_hours": "['7:30 - 21:00 (continuato)', 'Aperto la domenica8:00 - 21:00']",
		"picks_up_in_shopTruezip_code": "00159"
	},
	{
		"name": "ipertriscount",
		"street": "Via Piani di Santa Maria, 83 - Via Nettunense km 12,2",
		"lat": 41.67035610000001,
		"long": 12.6513584,
		"city": "Ariccia",
		"working_hours": "['dal luned\u00ec al sabato 7:30 - 21:00 (continuato)', 'Aperto la domenica8:00 - 21:00']",
		"picks_up_in_shopTruezip_code": "00040"
	},
	{
		"name": "ipertriscount",
		"street": "S.S. Cassia Nord km 86,400",
		"lat": 43.5490133,
		"long": 11.1770505,
		"city": null,
		"working_hours": "['Dal luned\u00ec al sabato 8:00 - 21:00 (continuato)', 'Aperto la domenica8:00 - 21:00']",
		"picks_up_in_shopTruezip_code": "50021"
	},
	{
		"name": "ipertriscount",
		"street": "Via Braccianese Claudia, 57",
		"lat": 42.0860861,
		"long": 12.1855137,
		"city": null,
		"working_hours": "['dal luned\u00ec al sabato 8:00 - 22:00 (continuato)', 'Aperto la domenica8:00 - 22:00']",
		"picks_up_in_shopTruezip_code": "00062"
	},
	{
		"name": "ipertriscount",
		"street": "Via delle Molette, 245",
		"lat": 42.0019877,
		"long": 12.6682688,
		"city": null,
		"working_hours": "['Dal luned\u00ec al sabato 8:00 - 21:00 (continuato)', 'Aperto la domenica8:00 - 21:00']",
		"picks_up_in_shopTruezip_code": "00013"
	},
	{
		"name": "ipertriscount",
		"street": "Via Carlo Santarelli, 91",
		"lat": 41.8610365,
		"long": 12.6076008,
		"city": "Roma",
		"working_hours": "['Aperto la domenica']",
		"picks_up_in_shopTruezip_code": "00133"
	},
	{
		"name": "ipertriscount",
		"street": "Via Ostiense, 2193",
		"lat": 41.7681013,
		"long": 12.3224347,
		"city": null,
		"working_hours": "['7:30 - 21:00 (continuato)', 'Aperto la domenica8:00 - 21:00']",
		"picks_up_in_shopTruezip_code": "00124"
	},
	{
		"name": "ipertriscount",
		"street": "Via Don Primo Mazzolari, 169/181/183 - C.C. Unico",
		"lat": 41.8940679,
		"long": 12.6738347,
		"city": "Roma",
		"working_hours": "['7:30 - 22:00 (continuato)', 'Aperto la domenica8:00 - 22:00']",
		"picks_up_in_shopTruezip_code": "00132"
	},
	{
		"name": "ipertriscount",
		"street": "Via Enrico Ferri, 8",
		"lat": 41.8509698,
		"long": 12.5991978,
		"city": "Roma",
		"working_hours": "['8:00 - 21:00 (continuato)', 'Aperto la domenica8:00 - 21:00']",
		"picks_up_in_shopTruezip_code": "00173"
	},
	{
		"name": "ipertriscount",
		"street": "Via Orvieto, 44",
		"lat": 45.094534,
		"long": 7.671532399999999,
		"city": "Torino",
		"working_hours": "['07:30 - 20:30 (continuato)', 'Aperto la domenica08:00 - 13:30']",
		"picks_up_in_shopTruezip_code": "10149"
	},
	{
		"name": "ipertriscount",
		"street": "Via Salaria, 1380",
		"lat": 42.0015842,
		"long": 12.5191373,
		"city": "Roma",
		"working_hours": "['7:30 - 21:00 (continuato)', 'Aperto la domenica8:00 - 21:00']",
		"picks_up_in_shopTruezip_code": "00138"
	}
]