[
    {
        "name": "ipercarni",
        "street": "Via Casilina, 2834",
        "lat": 41.8514128,
        "long": 12.7313413,
        "city": "Laghetto (RM)",
        "working_hours": "['dal lunedi al sabato 8:00-20:00 (continuato)', 'Aperto la domenica8:00-20:00']",
        "picks_up_in_shop": "True",
        "zip_code": "00040"
    },
    {
        "name": "ipercarni",
        "street": "Via L. Einaudi ang. Via L. Sturzo 3/5",
        "lat": 42.037213,
        "long": 12.643324,
        "city": "Mentana",
        "working_hours": "['dal luned\u00ec al sabato 7.30-20.00 (continuato)', 'Aperto la domenicadomenica 8.00-13.00']",
        "picks_up_in_shop": "True",
        "zip_code": "00013"
    },
    {
        "name": "ipercarni",
        "street": "Via Claudio Asello, 25/33",
        "lat": 41.8634753,
        "long": 12.5578358,
        "city": "Roma",
        "working_hours": "['Aperto la domenica']",
        "picks_up_in_shop": "True",
        "zip_code": "00175"
    },
    {
        "name": "ipercarni",
        "street": "Via dei Platani, 47/52",
        "lat": 41.8812924,
        "long": 12.5647588,
        "city": "Roma, Centocelle",
        "working_hours": "['Aperto la domenica8:30 - 13:00']",
        "picks_up_in_shop": "True",
        "zip_code": "00172"
    },
    {
        "name": "ipercarni",
        "street": "Via Casilina, 1846",
        "lat": 41.8623807,
        "long": 12.6858475,
        "city": "Roma, Finocchio",
        "working_hours": "['Aperto la domenica8:30 - 13:00']",
        "picks_up_in_shop": "True",
        "zip_code": "00132"
    },
    {
        "name": "ipercarni",
        "street": "Viale dell'Esercito, 38",
        "lat": 41.8132522,
        "long": 12.4862925,
        "city": "Roma, Cecchignola",
        "working_hours": "['Aperto la domenica8:30 - 13:00']",
        "picks_up_in_shop": "True",
        "zip_code": "00143"
    },
    {
        "name": "ipercarni",
        "street": "Via del Torraccio di Terranova, 222",
        "lat": 41.8510245,
        "long": 12.6533311,
        "city": "Roma, Torre Angela",
        "working_hours": "['Aperto la domenica8:30 - 13:00']",
        "picks_up_in_shop": "True",
        "zip_code": "00133"
    },
    {
        "name": "ipercarni",
        "street": "Via Antonio Roiti, 26/28/30/32",
        "lat": 41.8622989,
        "long": 12.4690545,
        "city": "Roma",
        "working_hours": "['Aperto la domenica']",
        "picks_up_in_shop": "True",
        "zip_code": "00146"
    },
    {
        "name": "ipercarni",
        "street": "Via Alessandrino, 320",
        "lat": 41.875995,
        "long": 12.579349,
        "city": "Roma, Casilino",
        "working_hours": "[]",
        "picks_up_in_shop": "True",
        "zip_code": "00172"
    },
    {
        "name": "ipercarni",
        "street": "Via delle Vigne Nuove, 232",
        "lat": 41.951474,
        "long": 12.536854,
        "city": "Roma, Montesacro-Fidene",
        "working_hours": "['Aperto la domenica8:30 - 13:00']",
        "picks_up_in_shop": "True",
        "zip_code": "00139"
    },
    {
        "name": "ipercarni",
        "street": "Piazza Giuseppe Impastato 10/13",
        "lat": 41.70027160000001,
        "long": 12.6885436,
        "city": "Genzano di Roma (RM)",
        "working_hours": "['Dal luned\u00ec al sabato 8:00 - 20:00 (continuato)', 'Aperto la domenica8:00 - 13:00']",
        "picks_up_in_shop": "True",
        "zip_code": "00045"
    },
    {
        "name": "ipercarni",
        "street": "Viale Africa, 92",
        "lat": 42.06356710000001,
        "long": 12.3735608,
        "city": "Formello - Le Rughe (RM)",
        "working_hours": "['dal luned\u00ec al sabato 7.30-20.00', 'Aperto la domenica8.00-20.00']",
        "picks_up_in_shop": "True",
        "zip_code": "00060"
    },
    {
        "name": "ipercarni",
        "street": "Via Palombarese, 583",
        "lat": 41.9953365,
        "long": 12.6654739,
        "city": "Santa Lucia di Fonte Nuova (RM)",
        "working_hours": "['Aperto la domenica8:30 - 13:00']",
        "picks_up_in_shop": "True",
        "zip_code": "00013"
    },
    {
        "name": "ipercarni",
        "street": "Via Marco Papio, 30",
        "lat": 41.865677,
        "long": 12.5514651,
        "city": "Roma, Tuscolano-Quadraro",
        "working_hours": "['Aperto la domenica8:30 - 13:00']",
        "picks_up_in_shop": "True",
        "zip_code": "00175"
    },
    {
        "name": "ipercarni",
        "street": "Via di Casal Marmo, 329",
        "lat": 41.9510111,
        "long": 12.3965359,
        "city": "Roma",
        "working_hours": "['Aperto la domenica8:30 - 13:00']",
        "picks_up_in_shop": "True",
        "zip_code": "00135"
    },
    {
        "name": "ipercarni",
        "street": "Viale Partenope, 117/123",
        "lat": 41.8902734,
        "long": 12.5514772,
        "city": "Roma",
        "working_hours": "[]",
        "picks_up_in_shop": "True",
        "zip_code": "00177"
    },
    {
        "name": "ipercarni",
        "street": "Via di Pietralata, 434",
        "lat": 41.9155854,
        "long": 12.5553519,
        "city": "Roma, Tiburtina",
        "working_hours": "['Aperto la domenica8:30 - 13:00']",
        "picks_up_in_shop": "True",
        "zip_code": "00157"
    },
    {
        "name": "ipercarni",
        "street": "Viale Giorgio Morandi, 193",
        "lat": 41.8990032,
        "long": 12.585842,
        "city": "Roma, Tor Sapienza",
        "working_hours": "[]",
        "picks_up_in_shop": "True",
        "zip_code": "00155"
    },
    {
        "name": "ipercarni",
        "street": "Via Ugo Ojetti, 370 (Via Carlo Lorenzini, 91)",
        "lat": 41.9457621,
        "long": 12.5539286,
        "city": "Roma",
        "working_hours": "[]",
        "picks_up_in_shop": "True",
        "zip_code": "00137"
    },
    {
        "name": "ipercarni",
        "street": "Via Casilina, 366",
        "lat": 41.8804642,
        "long": 12.5409943,
        "city": "Roma, Tor Pignattara",
        "working_hours": "[]",
        "picks_up_in_shop": "True",
        "zip_code": "00176"
    }
]