[
    {
        "name": "dem",
        "street": "Via Tiberina, 81/B",
        "lat": 42.1155475,
        "long": 12.5889171,
        "city": "Capena (RM)",
        "working_hours": "[]",
        "picks_up_in_shop": "True",
        "zip_code": "00060"
    },
    {
        "name": "dem",
        "street": "Via Costa Caselle, snc",
        "lat": 41.7622637,
        "long": 12.6730441,
        "city": "Marino (RM)",
        "working_hours": "[]",
        "picks_up_in_shop": "True",
        "zip_code": null
    },
    {
        "name": "dem",
        "street": "Via Santorre di Santarosa, 29",
        "lat": 41.66684739999999,
        "long": 12.505978,
        "city": "Pomezia (RM)",
        "working_hours": "['8:00 - 20:00 (continuato)', 'Aperto la domenica8:00 - 13:00']",
        "picks_up_in_shop": "True",
        "zip_code": "00071"
    },
    {
        "name": "dem",
        "street": "Via Mura dei Francesi, 1",
        "lat": 41.7897005,
        "long": 12.6161942,
        "city": "Ciampino (RM)",
        "working_hours": "['8:00 - 20:30 (continuato)', 'Aperto la domenica']",
        "picks_up_in_shop": "True",
        "zip_code": "00043"
    },
    {
        "name": "dem",
        "street": "Via Cesare Pascarella, 29",
        "lat": 41.8768047,
        "long": 12.46742,
        "city": "Roma",
        "working_hours": "['8:30 - 20.00 (continuato)', 'Aperto la domenica8:30 - 13:30']",
        "picks_up_in_shop": "True",
        "zip_code": "00153"
    },
    {
        "name": "dem",
        "street": "Via Renato Castellani, 22",
        "lat": 41.78789219999999,
        "long": 12.6972144,
        "city": "Grottaferrata (RM)",
        "working_hours": "[]",
        "picks_up_in_shop": "True",
        "zip_code": "00046"
    },
    {
        "name": "dem",
        "street": "Via Lago di Lesi, snc",
        "lat": 41.9555527,
        "long": 12.7748976,
        "city": "Tivoli (RM)",
        "working_hours": "['Aperto la domenica']",
        "picks_up_in_shop": "True",
        "zip_code": "00010"
    },
    {
        "name": "dem",
        "street": "Via Tiburtina Valeria, Km. 111,700",
        "lat": 42.0546065,
        "long": 13.3971877,
        "city": "Scurcola Marsicana (AQ)",
        "working_hours": "[]",
        "picks_up_in_shop": "True",
        "zip_code": null
    },
    {
        "name": "dem",
        "street": "Via Casal Selce, 296",
        "lat": 41.9099165,
        "long": 12.3497177,
        "city": "Roma",
        "working_hours": "['8:00 - 20:00 (continuato)', 'Aperto la domenica']",
        "picks_up_in_shop": "True",
        "zip_code": "00166"
    },
    {
        "name": "dem",
        "street": "Via Maria, 85",
        "lat": 41.6501811,
        "long": 13.3509922,
        "city": "Frosinone (FR)",
        "working_hours": "[]",
        "picks_up_in_shop": "True",
        "zip_code": "03100"
    },
    {
        "name": "dem",
        "street": "Via Pontina, km 27,800",
        "lat": 41.6612994,
        "long": 12.5213626,
        "city": "Pomezia (RM)",
        "working_hours": "[]",
        "picks_up_in_shop": "True",
        "zip_code": null
    },
    {
        "name": "dem",
        "street": "Via Antonio Angeloni, snc",
        "lat": 41.7558891,
        "long": 12.237061,
        "city": "Fiumicino (RM)",
        "working_hours": "['8:00 - 20:00 (continuato)', 'Aperto la domenica']",
        "picks_up_in_shop": "True",
        "zip_code": "00054"
    },
    {
        "name": "dem",
        "street": "Via delle Ciliegie, 100",
        "lat": 41.8866052,
        "long": 12.5755235,
        "city": "Roma",
        "working_hours": "['8:00 - 20:00 (continuato)', 'Aperto la domenica']",
        "picks_up_in_shop": "True",
        "zip_code": "00172"
    },
    {
        "name": "dem",
        "street": "Via Sofia De Filippi Mariani, 1",
        "lat": 42.0898973,
        "long": 11.7979568,
        "city": "Civitavecchia (RM)",
        "working_hours": "[]",
        "picks_up_in_shop": "True",
        "zip_code": "00053"
    },
    {
        "name": "dem",
        "street": "Via Mura dei Francesi, snc - ang. Via Niccolo Tommaseo",
        "lat": 41.7945332,
        "long": 12.6110576,
        "city": "Ciampino (RM)",
        "working_hours": "['0669417993']",
        "picks_up_in_shop": "True",
        "zip_code": "00043"
    },
    {
        "name": "dem",
        "street": "Via Prenestina Nuova, 10",
        "lat": 41.82799060000001,
        "long": 12.8143038,
        "city": "San Cesareo (RM)",
        "working_hours": "[]",
        "picks_up_in_shop": "True",
        "zip_code": "00030"
    },
    {
        "name": "dem",
        "street": "Via Aurelia km. 66,600",
        "lat": 42.0153009,
        "long": 11.9758327,
        "city": "Santa Marinella (RM)",
        "working_hours": "[]",
        "picks_up_in_shop": "True",
        "zip_code": null
    },
    {
        "name": "dem",
        "street": "Strada Acque Alte, 101",
        "lat": 41.5013242,
        "long": 12.8589471,
        "city": "Loc. Borgo Podgora (LT)",
        "working_hours": "[]",
        "picks_up_in_shop": "True",
        "zip_code": "04100"
    },
    {
        "name": "dem",
        "street": "Via di Santa Maria Ausiliatrice, 63/A",
        "lat": 41.8726397,
        "long": 12.5283795,
        "city": "Roma",
        "working_hours": "['8:00 - 20:00 (continuato)', 'Aperto la domenica8:00 - 13:00']",
        "picks_up_in_shop": "True",
        "zip_code": "00181"
    },
    {
        "name": "dem",
        "street": "Via Castelli Romani 10/11, C.C. \"I Padiglioni\"",
        "lat": 41.6791639,
        "long": 12.5037437,
        "city": "Pomezia (RM)",
        "working_hours": "['8:00 - 20:30 (continuato)', 'Aperto la domenica']",
        "picks_up_in_shop": "True",
        "zip_code": "00071"
    },
    {
        "name": "dem",
        "street": "Via delle Cave, 99/A",
        "lat": 41.8718485,
        "long": 12.5305851,
        "city": "Roma",
        "working_hours": "[]",
        "picks_up_in_shop": "True",
        "zip_code": "00181"
    },
    {
        "name": "dem",
        "street": "Via Armando Vona, 20 - c/o C.C. Le Sorgenti",
        "lat": 41.6210567,
        "long": 13.2851666,
        "city": "Frosinone (FR)",
        "working_hours": "[]",
        "picks_up_in_shop": "True",
        "zip_code": "03100"
    },
    {
        "name": "dem",
        "street": "Via Casilina, 769",
        "lat": 41.8762272,
        "long": 12.5567647,
        "city": "Roma",
        "working_hours": "['8:00 - 20:00 (continuato)', 'Aperto la domenica8:00 - 20:00']",
        "picks_up_in_shop": "True",
        "zip_code": "00172"
    },
    {
        "name": "dem",
        "street": "Via Tuscolana, 761",
        "lat": 41.8608612,
        "long": 12.5563865,
        "city": "Roma",
        "working_hours": "['8:00 - 21:00 (continuato)', 'Aperto la domenica']",
        "picks_up_in_shop": "True",
        "zip_code": "00175"
    },
    {
        "name": "dem",
        "street": "Via Maremmana Inferiore km 2,00 (civ. 86)",
        "lat": 41.9485651,
        "long": 12.760632,
        "city": "Tivoli (RM)",
        "working_hours": "['8:00 - 20:30 (continuato)', 'Aperto la domenica']",
        "picks_up_in_shop": "True",
        "zip_code": null
    }
]