[
    {
        "name": "sacoph",
        "street": "Tiburtina, 605/a",
        "lat": 41.9089532,
        "long": 12.5451512,
        "city": "Roma",
        "working_hours": "['8:00 - 20:30 (continuato)', 'Aperto la domenica9:00 - 13:00']",
        "picks_up_in_shop": "True",
        "zip_code": "00157"
    },
    {
        "name": "sacoph",
        "street": "Via Maremmana Inferiore, 189",
        "lat": 41.9627133,
        "long": 12.7565275,
        "city": "Villanova di Guidonia (RM)",
        "working_hours": "['8:00 - 21:30 (continuato)', 'Aperto la domenica8:30 - 20:30']",
        "picks_up_in_shop": "True",
        "zip_code": "00012"
    },
    {
        "name": "sacoph",
        "street": "Via Caffaro, 45-47",
        "lat": 41.8652105,
        "long": 12.4857325,
        "city": "Roma",
        "working_hours": "['8:00-21:30 (continuato)', 'Aperto la domenica8:30-21:00']",
        "picks_up_in_shop": "True",
        "zip_code": "00154"
    },
    {
        "name": "sacoph",
        "street": "Via G.B. Manzella, 20",
        "lat": 41.9377022,
        "long": 12.5794586,
        "city": "Roma",
        "working_hours": "['7:00 - 21:00 (continuato)', 'Aperto la domenica7:00 - 21:00']",
        "picks_up_in_shop": "True",
        "zip_code": "00156"
    },
    {
        "name": "sacoph",
        "street": "Via Tuscolana, 585/b",
        "lat": 41.864155,
        "long": 12.5483354,
        "city": "Roma",
        "working_hours": "['24 H (continuato)', 'Aperto la domenica24 H']",
        "picks_up_in_shop": "True",
        "zip_code": "00175"
    },
    {
        "name": "sacoph",
        "street": "Via Pontina, 410-420",
        "lat": 41.7918307,
        "long": 12.4512201,
        "city": "Roma",
        "working_hours": "[]",
        "picks_up_in_shop": "True",
        "zip_code": "00128"
    },
    {
        "name": "sacoph",
        "street": "Viale Etiopia, 38",
        "lat": 41.9329618,
        "long": 12.5216765,
        "city": "Roma",
        "working_hours": "['8:00 - 21:00 (continuato)', 'Aperto la domenica9:00 - 13:30']",
        "picks_up_in_shop": "True",
        "zip_code": "00199"
    },
    {
        "name": "sacoph",
        "street": "Via Cineto Romano, 28",
        "lat": 41.952161,
        "long": 12.6430842,
        "city": "Setteville di Guidonia (RM)",
        "working_hours": "['dal luned\u00ec al venerd\u00ec 8:00 - 20:30 / sabato 8:00 - 20:00 (continuato)', 'Aperto la domenica9:00 - 13:00']",
        "picks_up_in_shop": "True",
        "zip_code": "00012"
    },
    {
        "name": "sacoph",
        "street": "Via G. Leopardi, 29",
        "lat": 41.9430555,
        "long": 12.6495929,
        "city": "Setteville di Guidonia (RM)",
        "working_hours": "['8:00 - 20:00 (continuato)', 'Aperto la domenica9:00 - 13:00']",
        "picks_up_in_shop": "True",
        "zip_code": "00012"
    },
    {
        "name": "sacoph",
        "street": "Piazza Alessandria, 7",
        "lat": 41.911339,
        "long": 12.501965,
        "city": "Roma",
        "working_hours": "['7:00 - 20:30 (continuato)', 'Aperto la domenica9:00 - 13:00']",
        "picks_up_in_shop": "True",
        "zip_code": "00198"
    },
    {
        "name": "sacoph",
        "street": "Via dei Durantini, 408",
        "lat": 41.9203044,
        "long": 12.5465064,
        "city": "Roma",
        "working_hours": "['8:00 - 20:00 (continuato)', 'Aperto la domenica9:00 - 13:00']",
        "picks_up_in_shop": "True",
        "zip_code": "00157"
    }
]